[
    { "name": "Afidnes", "lat": 38.2417, "lng": 23.8583, "car": 2.30, "bike": 1.60 },
    { "name": "Kapandriti", "lat": 38.2566, "lng": 23.8392, "car": 1.40, "bike": 1.00 },
    { "name": "Malakasa", "lat": 38.2919, "lng": 23.8328, "car": 1.00, "bike": 0.70 },
    { "name": "Thessaloniki", "lat": 40.6401, "lng": 22.9444, "car": 0.35, "bike": 0.25 },
    { "name": "Analipsi", "lat": 40.6586, "lng": 22.9033, "car": 1.60, "bike": 1.10 },
    { "name": "Asprovalta", "lat": 40.7226, "lng": 23.7022, "car": 0.75, "bike": 0.50 },
    { "name": "Malgara", "lat": 40.6028, "lng": 22.7125, "car": 0.65, "bike": 0.45 },
    { "name": "Pelasgia", "lat": 38.8925, "lng": 22.8414, "car": 2.30, "bike": 1.60 },
    { "name": "Moschochori", "lat": 38.7552, "lng": 22.4385, "car": 2.60, "bike": 1.80 },
    { "name": "Makrychori", "lat": 39.7583, "lng": 22.5736, "car": 1.70, "bike": 1.20 },
    { "name": "Leptokarya", "lat": 40.0781, "lng": 22.4975, "car": 2.10, "bike": 1.50 },
    { "name": "Agia Triada", "lat": 38.8112, "lng": 22.5931, "car": 2.00, "bike": 1.40 },
    { "name": "Molos", "lat": 38.7890, "lng": 22.7024, "car": 0.35, "bike": 0.25 },
    { "name": "Mavromantila", "lat": 38.9269, "lng": 22.4043, "car": 2.15, "bike": 1.50 },
    { "name": "Lianokladi", "lat": 38.9231, "lng": 22.3447, "car": 1.95, "bike": 1.35 },
    { "name": "Anavra", "lat": 39.0169, "lng": 22.2883, "car": 2.10, "bike": 1.45 },
    { "name": "Sofades", "lat": 39.3533, "lng": 22.1036, "car": 3.55, "bike": 2.50 },
    { "name": "Trikala", "lat": 39.5553, "lng": 21.7671, "car": 3.10, "bike": 2.15 },
    { "name": "Mesti", "lat": 40.8806, "lng": 25.6139, "car": 1.55, "bike": 1.10 },
    { "name": "Iasmos", "lat": 41.0021, "lng": 25.2110, "car": 1.25, "bike": 0.90 },
    { "name": "Kavala", "lat": 40.9396, "lng": 24.4069, "car": 1.30, "bike": 0.95 },
    { "name": "Polymylos", "lat": 40.3034, "lng": 21.7853, "car": 1.35, "bike": 1.00 },
    { "name": "Siatista", "lat": 40.2647, "lng": 21.5469, "car": 1.35, "bike": 1.00 },
    { "name": "Malakasi", "lat": 39.8003, "lng": 21.1036, "car": 1.30, "bike": 0.90 },
    { "name": "Pamvotida", "lat": 39.6680, "lng": 20.8534, "car": 1.10, "bike": 0.80 },
    { "name": "Terovo", "lat": 39.3817, "lng": 20.8891, "car": 2.45, "bike": 1.70 },
    { "name": "Attiki Odos", "lat": 38.0181, "lng": 23.7822, "car": 2.80, "bike": 1.40 }
  ]
